[
  {
    "name": "J & M Scaffolds of Florida",
    "type": "shipper",
    "category": "Scaffolding",
    "address": "11050 NW 36th Ave, Miami, FL 33167",
    "city": "Miami",
    "phone": "(305) 953-6965",
    "website": "https://www.scaffoldsofflorida.com",
    "lat": 25.8896,
    "lon": -80.2518
  },
  {
    "name": "BrandSafway - Orlando",
    "type": "shipper",
    "category": "Scaffolding / Shoring",
    "address": "11208 Boggy Creek Rd, Orlando, FL 32824",
    "city": "Orlando",
    "phone": "(407) 859-2060",
    "website": "https://brandsafway.com/orlando",
    "lat": 28.4393,
    "lon": -81.3929
  },
  {
    "name": "BrandSafway - Tampa",
    "type": "shipper",
    "category": "Scaffolding / Shoring",
    "address": "8205 E Adamo Dr, Tampa, FL 33619",
    "city": "Tampa",
    "phone": "(813) 623-6228",
    "website": "https://brandsafway.com/tampa",
    "lat": 27.9386,
    "lon": -82.4082
  },
  {
    "name": "BrandSafway - Jacksonville",
    "type": "shipper",
    "category": "Scaffolding / Shoring",
    "address": "2922 St Augustine Rd, Jacksonville, FL 32207",
    "city": "Jacksonville",
    "phone": "(904) 683-0545",
    "website": "https://brandsafway.com/jacksonville",
    "lat": 30.2903,
    "lon": -81.6362
  },
  {
    "name": "Scaff-Tech Inc - Main",
    "type": "shipper",
    "category": "Scaffolding / Shoring / Fencing",
    "address": "1001 NW 72nd St, Miami, FL 33150",
    "city": "Miami",
    "phone": "(786) 652-2900",
    "website": "https://scafftechinc.com",
    "lat": 25.8400,
    "lon": -80.2200
  },
  {
    "name": "Scaff-Tech Inc - Distribution",
    "type": "shipper",
    "category": "Scaffolding / Shoring / Fencing",
    "address": "7735 W 20th Ave, Hialeah, FL 33014",
    "city": "Hialeah",
    "phone": "(786) 652-2900",
    "website": "https://scafftechinc.com",
    "lat": 25.8676,
    "lon": -80.3291
  },
  {
    "name": "Unispan USA",
    "type": "shipper",
    "category": "Shoring & Formwork",
    "address": "1840 Marty Fladell Dr, Delray Beach, FL 33444",
    "city": "Delray Beach",
    "phone": "(561) 513-6737",
    "website": "https://www.unispanusa.com",
    "lat": 26.4500,
    "lon": -80.0841
  },
  {
    "name": "USA Hoist",
    "type": "shipper",
    "category": "Mast Climber & Hoist Rental",
    "address": "Service area: Jacksonville, Miami, Ft Lauderdale, Orlando",
    "city": "Multiple FL",
    "phone": "(973) 579-9962",
    "website": "https://usahoist.com/locations/florida/",
    "lat": 27.9944,
    "lon": -81.7603
  },
  {
    "name": "Peninsular Lumber Company",
    "type": "shipper",
    "category": "Lumber & Building Materials",
    "address": "4812 N Grady Ave, Tampa, FL 33614",
    "city": "Tampa",
    "phone": "(813) 875-8805",
    "website": "https://penlumber.com",
    "lat": 27.9767,
    "lon": -82.4861
  },
  {
    "name": "Tibbetts Lumber Co",
    "type": "shipper",
    "category": "Lumber & Building Materials",
    "address": "21033 FL-54, Lutz, FL 33558",
    "city": "Lutz",
    "phone": "(813) 948-7584",
    "website": "https://tibbettslumber.com",
    "lat": 28.1539,
    "lon": -82.4604
  },
  {
    "name": "Builders FirstSource - Tampa",
    "type": "shipper",
    "category": "Lumber & Building Materials",
    "address": "1602 Industrial Park Dr, Tampa, FL 33619",
    "city": "Tampa",
    "phone": "(813) 759-5922",
    "website": "https://www.bldr.com/location/tampa-fl-lumber-yard/LSTTAF",
    "lat": 27.9319,
    "lon": -82.3750
  },
  {
    "name": "Builders FirstSource - Orlando",
    "type": "shipper",
    "category": "Lumber & Building Materials",
    "address": "11501 Ryland Ct, Orlando, FL 32824",
    "city": "Orlando",
    "phone": "(407) 851-2100",
    "website": "https://www.bldr.com/location/orlando-fl-lumber-yard/LSOORF",
    "lat": 28.4393,
    "lon": -81.3800
  },
  {
    "name": "North Rome Lumber",
    "type": "shipper",
    "category": "Lumber & Building Materials",
    "address": "3812 N Rome Ave, Tampa, FL 33603",
    "city": "Tampa",
    "phone": "(813) 877-6521",
    "website": "https://www.northromelumber.com",
    "lat": 27.9704,
    "lon": -82.4753
  },
  {
    "name": "Anderson Lumber Company",
    "type": "shipper",
    "category": "Lumber & Building Materials",
    "address": "2625 4th St S, St. Petersburg, FL 33705",
    "city": "St. Petersburg",
    "phone": "(727) 823-3741",
    "website": "https://andersonlumberstpete.com",
    "lat": 27.7530,
    "lon": -82.6371
  },
  {
    "name": "Raymond Building Supply",
    "type": "shipper",
    "category": "Lumber & Building Materials",
    "address": "7751 Bayshore Rd, North Fort Myers, FL 33917",
    "city": "North Fort Myers",
    "phone": "(239) 731-8300",
    "website": "https://rbsc.net",
    "lat": 26.6879,
    "lon": -81.8850
  },
  {
    "name": "Suncoast Roofers Supply - North Tampa",
    "type": "shipper",
    "category": "Roofing Material Distributor",
    "address": "14212 N Nebraska Ave, Tampa, FL 33613",
    "city": "Tampa",
    "phone": "(813) 664-8686",
    "website": "https://suncoastrooferssupply.com",
    "lat": 28.0400,
    "lon": -82.4516
  },
  {
    "name": "Suncoast Roofers Supply - South Tampa",
    "type": "shipper",
    "category": "Roofing Material Distributor",
    "address": "498 Rille Ln, Tampa, FL 33619",
    "city": "Tampa",
    "phone": "(813) 665-1655",
    "website": "https://suncoastrooferssupply.com",
    "lat": 27.9250,
    "lon": -82.3800
  },
  {
    "name": "SYL Roofing Supply",
    "type": "shipper",
    "category": "Roofing Material Distributor",
    "address": "930 Carter Rd, Ste 303, Winter Garden, FL 34787",
    "city": "Winter Garden",
    "phone": "(407) 534-2698",
    "website": "https://sylroofingsupply.com",
    "lat": 28.5547,
    "lon": -81.5863
  },
  {
    "name": "KRS Roofing Supply - Kissimmee",
    "type": "shipper",
    "category": "Roofing Material Distributor",
    "address": "2646 Michigan Ave, Unit A, Kissimmee, FL 34744",
    "city": "Kissimmee",
    "phone": "(407) 535-0970",
    "website": "https://krsroofingsupply.com",
    "lat": 28.2919,
    "lon": -81.3889
  },
  {
    "name": "KRS Roofing Supply - Tampa",
    "type": "shipper",
    "category": "Roofing Material Distributor",
    "address": "6409 N 50th St, Tampa, FL 33610",
    "city": "Tampa",
    "phone": "(786) 498-1682",
    "website": "https://krsroofingsupply.com",
    "lat": 27.9915,
    "lon": -82.4082
  },
  {
    "name": "Gulfeagle Supply - Tampa HQ",
    "type": "shipper",
    "category": "Roofing Material Distributor",
    "address": "2900 E 7th Ave, Ste 200, Tampa, FL 33605",
    "city": "Tampa",
    "phone": "(813) 574-1917",
    "website": "https://www.gulfeaglesupply.com",
    "lat": 27.9604,
    "lon": -82.4360
  },
  {
    "name": "Gulfeagle Supply - Orlando",
    "type": "shipper",
    "category": "Roofing Material Distributor",
    "address": "10705 Rocket Blvd, Orlando, FL 32824",
    "city": "Orlando",
    "phone": "(407) 859-2060",
    "website": "https://www.gulfeaglesupply.com",
    "lat": 28.4400,
    "lon": -81.3900
  },
  {
    "name": "1st Coast Metal Roofing Supply - Jacksonville",
    "type": "shipper",
    "category": "Roofing Material Distributor",
    "address": "4255 Dignan St, Jacksonville, FL 32254",
    "city": "Jacksonville",
    "phone": "(904) 490-6004",
    "website": "https://1stcoastmrs.com",
    "lat": 30.3256,
    "lon": -81.7286
  },
  {
    "name": "American Metal Roofing Supply",
    "type": "shipper",
    "category": "Roofing Material Distributor",
    "address": "4750 Lexington Ave, Fort Myers, FL 33905",
    "city": "Fort Myers",
    "phone": "(239) 231-3151",
    "website": "https://amroofingsupply.com",
    "lat": 26.6460,
    "lon": -81.8219
  },
  {
    "name": "Coastal Roofing Supply",
    "type": "shipper",
    "category": "Roofing Material Distributor",
    "address": "285 Barnes Blvd, Rockledge, FL 32955",
    "city": "Rockledge",
    "phone": "(321) 639-1537",
    "website": "https://www.coastalroofingsupply.com",
    "lat": 28.3247,
    "lon": -80.7395
  },
  {
    "name": "R&R Rebar Fabricators",
    "type": "shipper",
    "category": "Rebar & Reinforcing Steel",
    "address": "912 Chastain Rd, Ste B, Seffner, FL 33584",
    "city": "Seffner",
    "phone": "(813) 685-6717",
    "website": "https://www.rrrebar.com",
    "lat": 27.9914,
    "lon": -82.2822
  },
  {
    "name": "Nachon Rebar (Miami Rebar)",
    "type": "shipper",
    "category": "Rebar & Reinforcing Steel",
    "address": "2477 W 4th Ave, Hialeah, FL 33010",
    "city": "Hialeah",
    "phone": "(305) 888-5236",
    "website": "https://www.miamirebar.com",
    "lat": 25.8218,
    "lon": -80.2931
  },
  {
    "name": "Southwestern Suppliers Inc",
    "type": "shipper",
    "category": "Rebar & Building Materials",
    "address": "Tampa, FL area",
    "city": "Tampa",
    "phone": "(813) 626-2193",
    "website": "http://www.sowes.com",
    "lat": 27.9506,
    "lon": -82.4572
  },
  {
    "name": "Tampa Steel & Supply",
    "type": "shipper",
    "category": "Steel & Metal Fabrication",
    "address": "1301 N 26th St, Tampa, FL 33605",
    "city": "Tampa",
    "phone": "(813) 241-2801",
    "website": "https://tampasteel.com",
    "lat": 27.9585,
    "lon": -82.4286
  },
  {
    "name": "Tampa Bay Steel",
    "type": "shipper",
    "category": "Steel & Metal Fabrication",
    "address": "6901 E 6th Ave, Tampa, FL 33619",
    "city": "Tampa",
    "phone": "(813) 621-4738",
    "website": "https://www.tampabaysteel.com",
    "lat": 27.9561,
    "lon": -82.3735
  },
  {
    "name": "Florida Structural Steel",
    "type": "shipper",
    "category": "Steel & Metal Fabrication",
    "address": "2710 E 5th Ave, Tampa, FL 33605",
    "city": "Tampa",
    "phone": "(813) 241-4261",
    "website": "https://floridastructuralsteel.com",
    "lat": 27.9578,
    "lon": -82.4340
  },
  {
    "name": "GMF Steel Group - Tampa Office",
    "type": "shipper",
    "category": "Steel & Metal Fabrication",
    "address": "5505 Airport Service Rd, Unit 103, Tampa, FL 33607",
    "city": "Tampa",
    "phone": null,
    "website": "https://gmfsteel.com",
    "lat": 27.9739,
    "lon": -82.5310
  },
  {
    "name": "Kloeckner Metals - Jacksonville",
    "type": "shipper",
    "category": "Steel & Metal Distributor",
    "address": "6867 Moncrief Rd W, Jacksonville, FL 32219",
    "city": "Jacksonville",
    "phone": "(904) 764-7724",
    "website": "https://www.kloecknermetals.com/branches/jacksonville/",
    "lat": 30.3758,
    "lon": -81.7447
  },
  {
    "name": "Oldcastle Coastal (CRH) - Tampa",
    "type": "shipper",
    "category": "Brick, Block & Masonry",
    "address": "5603 Anderson Rd, Tampa, FL 33614",
    "city": "Tampa",
    "phone": "(813) 886-7761",
    "website": "https://www.oldcastlecoastal.com",
    "lat": 27.9882,
    "lon": -82.5256
  },
  {
    "name": "Oldcastle Coastal (CRH) - Orlando",
    "type": "shipper",
    "category": "Brick, Block & Masonry",
    "address": "39 W Landstreet Rd, Orlando, FL 32824",
    "city": "Orlando",
    "phone": "(800) 226-9117",
    "website": "https://www.oldcastlecoastal.com",
    "lat": 28.4511,
    "lon": -81.3856
  },
  {
    "name": "Oldcastle Coastal (CRH) - Longwood",
    "type": "shipper",
    "category": "Brick, Block & Masonry",
    "address": "325 North St, Longwood, FL 32759",
    "city": "Longwood",
    "phone": "(407) 831-1050",
    "website": "https://www.oldcastlecoastal.com",
    "lat": 28.7006,
    "lon": -81.3513
  },
  {
    "name": "Bedrock Orlando",
    "type": "shipper",
    "category": "Brick, Block & Masonry",
    "address": "Orlando, FL area",
    "city": "Orlando",
    "phone": null,
    "website": "https://www.bedrockorlando.com",
    "lat": 28.5383,
    "lon": -81.3792
  },
  {
    "name": "Gator Gypsum - Tampa",
    "type": "shipper",
    "category": "Drywall & Insulation",
    "address": "3904 E Adamo Dr, Tampa, FL 33605",
    "city": "Tampa",
    "phone": "(813) 248-6393",
    "website": "https://gatorgypsum.com",
    "lat": 27.9387,
    "lon": -82.4240
  },
  {
    "name": "Gator Gypsum - Clearwater",
    "type": "shipper",
    "category": "Drywall & Insulation",
    "address": "12995 Daniels Dr, Clearwater, FL 33762",
    "city": "Clearwater",
    "phone": "(727) 573-4331",
    "website": "https://gatorgypsum.com",
    "lat": 27.8861,
    "lon": -82.6937
  },
  {
    "name": "Olympia Building Supplies (Gator Gypsum) - West Palm Beach",
    "type": "shipper",
    "category": "Drywall & Insulation",
    "address": "5415 N Australian Ave, West Palm Beach, FL 33407",
    "city": "West Palm Beach",
    "phone": "(561) 863-8665",
    "website": "https://gatorgypsum.com",
    "lat": 26.7273,
    "lon": -80.0685
  },
  {
    "name": "Interior Exterior Building Supply (INEX) - Tampa",
    "type": "shipper",
    "category": "Drywall & Insulation",
    "address": "5803 N 54th St, Tampa, FL 33610",
    "city": "Tampa",
    "phone": null,
    "website": "https://www.interiorexterior.net",
    "lat": 27.9936,
    "lon": -82.4010
  },
  {
    "name": "L&W Supply - Tampa",
    "type": "shipper",
    "category": "Drywall & Insulation",
    "address": "2817 N 36th St, Tampa, FL 33605",
    "city": "Tampa",
    "phone": null,
    "website": "https://lwsupply.com/locations/lw-supply-tampa-fl/",
    "lat": 27.9666,
    "lon": -82.4350
  },
  {
    "name": "General Insulation Company - Tampa",
    "type": "shipper",
    "category": "Insulation Distributor",
    "address": "4735 Distribution Dr, Tampa, FL 33605",
    "city": "Tampa",
    "phone": "(813) 241-2226",
    "website": "https://www.generalinsulation.com",
    "lat": 27.9580,
    "lon": -82.4180
  },
  {
    "name": "IDI Distributors - Orlando",
    "type": "shipper",
    "category": "Insulation Distributor",
    "address": "Orlando, FL",
    "city": "Orlando",
    "phone": null,
    "website": "https://www.idi-insulation.com/location/orlando-fl/",
    "lat": 28.5383,
    "lon": -81.3792
  },
  {
    "name": "IDI Distributors - Miami",
    "type": "shipper",
    "category": "Insulation Distributor",
    "address": "Miami, FL",
    "city": "Miami",
    "phone": null,
    "website": "https://www.idi-insulation.com/location/miami-fl/",
    "lat": 25.7617,
    "lon": -80.1918
  },
  {
    "name": "Quality Precast Company",
    "type": "shipper",
    "category": "Precast Concrete Manufacturer",
    "address": "1406 E Dr. M.L. King Jr Blvd, Seffner, FL 33584",
    "city": "Seffner",
    "phone": "(813) 685-5615",
    "website": "https://www.qualityprecast.com",
    "lat": 27.9990,
    "lon": -82.2856
  },
  {
    "name": "Leesburg Concrete Company",
    "type": "shipper",
    "category": "Precast Concrete Manufacturer",
    "address": "1335 Thomas Ave, Leesburg, FL 34748",
    "city": "Leesburg",
    "phone": "(352) 787-4177",
    "website": "https://www.leesburgconcrete.com",
    "lat": 28.8086,
    "lon": -81.8740
  },
  {
    "name": "Atlantic Coast Precast",
    "type": "shipper",
    "category": "Precast Concrete Manufacturer",
    "address": "533 NE 33rd St, Oakland Park, FL 33334",
    "city": "Oakland Park",
    "phone": "(954) 564-6245",
    "website": "https://atlanticcoastprecast.com",
    "lat": 26.1656,
    "lon": -80.1264
  },
  {
    "name": "Premier Precast",
    "type": "shipper",
    "category": "Precast Concrete Manufacturer",
    "address": "1455 SW 4th Ave, Delray Beach, FL 33444",
    "city": "Delray Beach",
    "phone": "(561) 330-3737",
    "website": "https://premierprecast.com",
    "lat": 26.4425,
    "lon": -80.0785
  },
  {
    "name": "Precast Florida",
    "type": "shipper",
    "category": "Precast Concrete Manufacturer",
    "address": "Gainesville, FL area",
    "city": "Gainesville",
    "phone": null,
    "website": "https://www.precastfl.com",
    "lat": 29.6516,
    "lon": -82.3248
  },
  {
    "name": "Downey Glass",
    "type": "shipper",
    "category": "Glass & Window Manufacturer",
    "address": "1100 NW 15th Ave, Pompano Beach, FL 33069",
    "city": "Pompano Beach",
    "phone": "(954) 972-0026",
    "website": "https://www.downeyglass.com",
    "lat": 26.2380,
    "lon": -80.1310
  },
  {
    "name": "PGT Custom Windows + Doors",
    "type": "shipper",
    "category": "Glass & Window Manufacturer",
    "address": "1070 Technology Dr, North Venice, FL 34275",
    "city": "North Venice",
    "phone": "(941) 480-1600",
    "website": "https://www.pgtwindows.com",
    "lat": 27.1284,
    "lon": -82.4079
  },
  {
    "name": "Central State Glass",
    "type": "shipper",
    "category": "Glass & Window Distributor",
    "address": "Central Florida (multiple locations)",
    "city": "Central Florida",
    "phone": null,
    "website": "https://centralstateglass.com",
    "lat": 28.5383,
    "lon": -81.3792
  },
  {
    "name": "North Florida HVAC Supply",
    "type": "shipper",
    "category": "HVAC Equipment Distributor",
    "address": "6920 Philips Industrial Blvd, Jacksonville, FL 32256",
    "city": "Jacksonville",
    "phone": "(904) 866-5800",
    "website": "https://www.nflhvac.com",
    "lat": 30.2302,
    "lon": -81.5722
  },
  {
    "name": "Refricenter International - HQ",
    "type": "shipper",
    "category": "HVAC Equipment Distributor",
    "address": "7101 NW 43rd St, Miami, FL 33166",
    "city": "Miami",
    "phone": "(305) 477-8880",
    "website": "https://www.refricenter.net",
    "lat": 25.8136,
    "lon": -80.3226
  },
  {
    "name": "Blacks Supply - Orlando",
    "type": "shipper",
    "category": "HVAC Equipment Distributor",
    "address": "1206 W Pine St, Orlando, FL 32805",
    "city": "Orlando",
    "phone": "(407) 422-0181",
    "website": "https://www.blackssupply.com",
    "lat": 28.5435,
    "lon": -81.3920
  },
  {
    "name": "Blacks Supply - East Orlando",
    "type": "shipper",
    "category": "HVAC Equipment Distributor",
    "address": "2232 N Forsyth Rd, Orlando, FL 32807",
    "city": "Orlando",
    "phone": "(407) 678-0377",
    "website": "https://www.blackssupply.com",
    "lat": 28.5622,
    "lon": -81.3107
  },
  {
    "name": "Florida Industrial Products (FIP) - Tampa",
    "type": "shipper",
    "category": "Plumbing Supply (Pipe, Valves, Fittings)",
    "address": "1602 N 39th St, Tampa, FL 33605",
    "city": "Tampa",
    "phone": "(813) 247-5356",
    "website": "https://www.fiponline.com",
    "lat": 27.9641,
    "lon": -82.4262
  },
  {
    "name": "Lehman Pipe & Supply - Miami",
    "type": "shipper",
    "category": "Plumbing Supply (Pipe, Valves, Fittings)",
    "address": "3575 NW 36th St, Miami, FL 33142",
    "city": "Miami",
    "phone": "(305) 576-3054",
    "website": "https://lehmanpipe.com",
    "lat": 25.8119,
    "lon": -80.2460
  },
  {
    "name": "Lehman Pipe & Supply - Orlando",
    "type": "shipper",
    "category": "Plumbing Supply (Pipe, Valves, Fittings)",
    "address": "3875 W.D. Judge Dr, Ste 110, Orlando, FL 32808",
    "city": "Orlando",
    "phone": "(407) 270-2744",
    "website": "https://lehmanpipe.com",
    "lat": 28.5750,
    "lon": -81.4306
  },
  {
    "name": "Hughes Supply - Tampa",
    "type": "shipper",
    "category": "Plumbing Supply (Pipe, Valves, Fittings)",
    "address": "Tampa, FL",
    "city": "Tampa",
    "phone": null,
    "website": "https://hughessupply.com/tampa/",
    "lat": 27.9506,
    "lon": -82.4572
  },
  {
    "name": "PVF Industrial",
    "type": "shipper",
    "category": "Plumbing Supply (Pipe, Valves, Fittings)",
    "address": "Tampa, FL",
    "city": "Tampa",
    "phone": null,
    "website": "https://pvfindustrial.com",
    "lat": 27.9506,
    "lon": -82.4572
  },
  {
    "name": "Wool Plumbing Supply - Miami",
    "type": "shipper",
    "category": "Plumbing Supply",
    "address": "4340 SW 74th Ave, Miami, FL 33155",
    "city": "Miami",
    "phone": "(305) 266-7111",
    "website": "https://www.woolsupply.com",
    "lat": 25.7345,
    "lon": -80.3097
  },
  {
    "name": "Wool Plumbing Supply - Tampa",
    "type": "shipper",
    "category": "Plumbing Supply",
    "address": "Tampa, FL",
    "city": "Tampa",
    "phone": "(813) 868-6000",
    "website": "https://www.woolsupply.com",
    "lat": 27.9506,
    "lon": -82.4572
  },
  {
    "name": "AB Pipe & Supply",
    "type": "shipper",
    "category": "Plumbing Supply (Pipe, Valves, Fittings)",
    "address": "Miami, FL",
    "city": "Miami",
    "phone": null,
    "website": "https://www.abpipe.com",
    "lat": 25.7617,
    "lon": -80.1918
  },
  {
    "name": "Creative Modular Buildings",
    "type": "shipper",
    "category": "Modular/Prefab Building Manufacturer",
    "address": "8875 Hidden River Pkwy, Ste 300, Tampa, FL 33637",
    "city": "Tampa",
    "phone": "(813) 975-7256",
    "website": "https://www.creativemodular.com",
    "lat": 28.0543,
    "lon": -82.3926
  },
  {
    "name": "Jacobsen Homes",
    "type": "shipper",
    "category": "Modular/Prefab Building Manufacturer",
    "address": "600 Packard Ct, Safety Harbor, FL 34695",
    "city": "Safety Harbor",
    "phone": "(727) 726-1138",
    "website": "https://www.jachomes.com",
    "lat": 28.0004,
    "lon": -82.6965
  },
  {
    "name": "Affordable Structures",
    "type": "shipper",
    "category": "Modular/Prefab Building Manufacturer",
    "address": "28400 County Road 561, Tavares, FL 32778",
    "city": "Tavares",
    "phone": "(352) 742-7488",
    "website": "https://affordablestructures.com",
    "lat": 28.8095,
    "lon": -81.7420
  },
  {
    "name": "Solar Wholesale LLC",
    "type": "shipper",
    "category": "Solar Panel Distributor",
    "address": "7904 N Orange Blossom Trl, Orlando, FL 32810",
    "city": "Orlando",
    "phone": null,
    "website": "https://starsolarwholesale.com",
    "lat": 28.5921,
    "lon": -81.4100
  },
  {
    "name": "Sun Solar Depot",
    "type": "shipper",
    "category": "Solar Panel Distributor",
    "address": "745 S Kirkman Rd, Unit 757, Orlando, FL 32811",
    "city": "Orlando",
    "phone": null,
    "website": "https://sunsolardepot.com",
    "lat": 28.5247,
    "lon": -81.4310
  },
  {
    "name": "Fence Outlet - Tampa",
    "type": "shipper",
    "category": "Fencing Company",
    "address": "201 S Falkenburg Rd, Tampa, FL 33619",
    "city": "Tampa",
    "phone": "(813) 651-3623",
    "website": "https://www.fenceoutlet.com",
    "lat": 27.9427,
    "lon": -82.3340
  },
  {
    "name": "Florida State Fence",
    "type": "shipper",
    "category": "Fencing Company",
    "address": "4330 S 66th St, Tampa, FL 33619",
    "city": "Tampa",
    "phone": "(813) 798-6133",
    "website": "https://floridastatefence.com",
    "lat": 27.9126,
    "lon": -82.3757
  },
  {
    "name": "Superior Fence & Rail - HQ",
    "type": "shipper",
    "category": "Fencing Company",
    "address": "510 Superior Commerce Pt, Oviedo, FL 32765",
    "city": "Oviedo",
    "phone": "(407) 971-7804",
    "website": "https://www.superiorfenceandrail.com",
    "lat": 28.6578,
    "lon": -81.1962
  },
  {
    "name": "Universal Hardscapes - Tampa Plant",
    "type": "shipper",
    "category": "Landscape Supply (Pavers & Stone)",
    "address": "7720 US Hwy 301 N, Tampa, FL 33637",
    "city": "Tampa",
    "phone": "(813) 884-0010",
    "website": "https://universalhardscapes.com",
    "lat": 28.0591,
    "lon": -82.3692
  },
  {
    "name": "Universal Hardscapes - Showroom",
    "type": "shipper",
    "category": "Landscape Supply (Pavers & Stone)",
    "address": "6005 Anderson Rd, Tampa, FL 33634",
    "city": "Tampa",
    "phone": "(813) 884-0010",
    "website": "https://universalhardscapes.com",
    "lat": 27.9882,
    "lon": -82.5236
  },
  {
    "name": "Smokey Valley Stone Company",
    "type": "shipper",
    "category": "Landscape Supply (Stone & Aggregate)",
    "address": "Clermont, FL area",
    "city": "Clermont",
    "phone": null,
    "website": "https://www.smokeyvalleystone.com",
    "lat": 28.5494,
    "lon": -81.7729
  },
  {
    "name": "Paver Supply Warehouse",
    "type": "shipper",
    "category": "Landscape Supply (Pavers & Stone)",
    "address": "Largo, FL area",
    "city": "Largo",
    "phone": null,
    "website": "https://paversupplywarehouse.com",
    "lat": 27.9095,
    "lon": -82.7874
  },
  {
    "name": "Pebble Junction",
    "type": "shipper",
    "category": "Landscape Supply (Stone)",
    "address": "702 S French Ave, Sanford, FL 32771",
    "city": "Sanford",
    "phone": "(407) 323-3838",
    "website": "https://www.pebblejunction.com",
    "lat": 28.8058,
    "lon": -81.2754
  },
  {
    "name": "Tremron - Orlando Dealer (Pavers & Stone Depot)",
    "type": "shipper",
    "category": "Landscape Supply (Pavers & Stone)",
    "address": "3150 36th St, Orlando, FL 32839",
    "city": "Orlando",
    "phone": "(407) 630-3730",
    "website": "https://www.tremron.com",
    "lat": 28.4960,
    "lon": -81.4244
  },
  {
    "name": "United Rentals - Tampa (Trench Safety)",
    "type": "shipper",
    "category": "Trench & Excavation Equipment",
    "address": "1513 McKay Bay Ct, Tampa, FL 33619",
    "city": "Tampa",
    "phone": null,
    "website": "https://www.unitedrentals.com/locations/fl/tampa/trench-safety-rentals/a15",
    "lat": 27.9361,
    "lon": -82.4082
  },
  {
    "name": "Sunbelt Rentals - Tampa (Trench Safety)",
    "type": "shipper",
    "category": "Trench & Excavation Equipment",
    "address": "7851 Communications Ln, Tampa, FL 33619",
    "city": "Tampa",
    "phone": "(813) 988-1033",
    "website": "https://www.sunbeltrentals.com",
    "lat": 27.9700,
    "lon": -82.3700
  },
  {
    "name": "Sunbelt Rentals - Tampa (General Equipment)",
    "type": "shipper",
    "category": "Heavy Equipment Rental",
    "address": "Tampa, FL",
    "city": "Tampa",
    "phone": null,
    "website": "https://www.sunbeltrentals.com/location/fl/tampa/equipment-tool-rentals/17/",
    "lat": 27.9506,
    "lon": -82.4572
  },
  {
    "name": "Sunbelt Rentals - Orlando",
    "type": "shipper",
    "category": "Heavy Equipment Rental",
    "address": "Orlando, FL",
    "city": "Orlando",
    "phone": null,
    "website": "https://www.sunbeltrentals.com/location/fl/orlando/equipment-tool-rentals/41/",
    "lat": 28.5383,
    "lon": -81.3792
  },
  {
    "name": "Sunbelt Rentals - Miami",
    "type": "shipper",
    "category": "Heavy Equipment Rental",
    "address": "Miami, FL",
    "city": "Miami",
    "phone": null,
    "website": "https://www.sunbeltrentals.com/location/fl/miami/equipment-tool-rentals/115/",
    "lat": 25.7617,
    "lon": -80.1918
  },
  {
    "name": "Florida Lumber (Nachon)",
    "type": "shipper",
    "category": "Lumber & Rebar Supply",
    "address": "2477 W 4th Ave, Hialeah, FL 33010",
    "city": "Hialeah",
    "phone": "(305) 888-5460",
    "website": "https://www.nachonlumberandhardware.com",
    "lat": 25.8218,
    "lon": -80.2931
  },
  {
    "name": "Oldcastle Coastal (CRH) - Tampa Belgard",
    "type": "shipper",
    "category": "Brick, Block & Masonry",
    "address": "8910 N 12th St, Tampa, FL 33604",
    "city": "Tampa",
    "phone": "(813) 932-1007",
    "website": "https://www.oldcastlecoastal.com",
    "lat": 28.0193,
    "lon": -82.4503
  },
  {
    "name": "Gator Gypsum - Sarasota",
    "type": "shipper",
    "category": "Drywall & Insulation",
    "address": "Sarasota, FL 34243",
    "city": "Sarasota",
    "phone": "(941) 216-3342",
    "website": "https://gatorgypsum.com",
    "lat": 27.3942,
    "lon": -82.5515
  },
  {
    "name": "Gator Gypsum - Orlando",
    "type": "shipper",
    "category": "Drywall & Insulation",
    "address": "371 W Taft Vineland Rd, Orlando, FL 32824",
    "city": "Orlando",
    "phone": null,
    "website": "https://gatorgypsum.com",
    "lat": 28.4400,
    "lon": -81.4200
  },
  {
    "name": "Florida Spray Foam - Orlando",
    "type": "shipper",
    "category": "Insulation Distributor",
    "address": "744 Commerce Cir, Longwood, FL 32750",
    "city": "Longwood",
    "phone": null,
    "website": "https://www.floridasprayfoam.com",
    "lat": 28.6986,
    "lon": -81.3483
  },
  {
    "name": "Florida Spray Foam - Tampa",
    "type": "shipper",
    "category": "Insulation Distributor",
    "address": "150 Stevens Ave, Oldsmar, FL 34677",
    "city": "Oldsmar",
    "phone": null,
    "website": "https://www.floridasprayfoam.com",
    "lat": 28.0340,
    "lon": -82.6645
  },
  {
    "name": "Precast Specialties",
    "type": "shipper",
    "category": "Precast Concrete Manufacturer",
    "address": "Florida (statewide)",
    "city": "Florida",
    "phone": null,
    "website": "https://precastspecialties.com",
    "lat": 27.9944,
    "lon": -81.7603
  },
  {
    "name": "Buckley Window Corp",
    "type": "shipper",
    "category": "Glass & Window Distributor",
    "address": "South Florida",
    "city": "South Florida",
    "phone": null,
    "website": "https://www.buckleywindow.com",
    "lat": 26.1224,
    "lon": -80.1373
  },
  {
    "name": "Global Modulars",
    "type": "shipper",
    "category": "Modular/Prefab Building Manufacturer",
    "address": "Florida (statewide)",
    "city": "Florida",
    "phone": null,
    "website": "https://www.globalmodulars.com",
    "lat": 27.9944,
    "lon": -81.7603
  },
  {
    "name": "Homes of Merit",
    "type": "shipper",
    "category": "Modular/Prefab Building Manufacturer",
    "address": "Lake City, FL",
    "city": "Lake City",
    "phone": null,
    "website": null,
    "lat": 30.1899,
    "lon": -82.6393
  },
  {
    "name": "KMG Fence",
    "type": "shipper",
    "category": "Fencing Company",
    "address": "Orlando / Tampa area",
    "city": "Orlando",
    "phone": null,
    "website": "https://www.kmgfence.com",
    "lat": 28.5383,
    "lon": -81.3792
  },
  {
    "name": "Smith Fence",
    "type": "shipper",
    "category": "Fencing Company",
    "address": "St. Petersburg / Tampa area",
    "city": "St. Petersburg",
    "phone": null,
    "website": "https://smithfence.com",
    "lat": 27.7676,
    "lon": -82.6403
  },
  {
    "name": "Buck's Plumbing Supply",
    "type": "shipper",
    "category": "Plumbing Supply",
    "address": "Tampa, FL",
    "city": "Tampa",
    "phone": null,
    "website": "https://www.bucksplumbingsupplyinc.com",
    "lat": 27.9506,
    "lon": -82.4572
  },
  {
    "name": "Marlin Manufacturing (TMS-Marlin)",
    "type": "shipper",
    "category": "Plumbing Supply",
    "address": "Florida",
    "city": "Florida",
    "phone": null,
    "website": "https://marlinplumbingsupplies.com",
    "lat": 27.9944,
    "lon": -81.7603
  }
]
